{
    "results": [
        {
            "lat": 19.6400905,
            "lon": -99.13551939999999,
            "place_id": "ChIJtbRcTDf00YURPCHdCnRhZ7c"
        },
        {
            "lat": 19.6301214,
            "lon": -99.12695049999999,
            "place_id": "ChIJMYz92AT20YURuWxW9yLzkn8"
        },
        {
            "lat": 19.6334265,
            "lon": -99.116675,
            "place_id": "ChIJi_cTFBr00YUR9NoYGQb-wwE"
        },
        {
            "lat": 19.6424376,
            "lon": -99.1145454,
            "place_id": "ChIJRz8hNxL00YURilfNr5ZNGjg"
        },
        {
            "lat": 19.6468788,
            "lon": -99.14501589999999,
            "place_id": "ChIJW8A1z0r00YURvW57cqSyN94"
        },
        {
            "lat": 19.642826,
            "lon": -99.1106449,
            "place_id": "ChIJNwPqvA300YURh7Nzws3Mgu4"
        },
        {
            "lat": 19.6410447,
            "lon": -99.12538599999999,
            "place_id": "ChIJTXO6Rx710YURwsVWPFEZw48"
        },
        {
            "lat": 19.6349354,
            "lon": -99.11456869999999,
            "place_id": "ChIJAZjohhr00YURCRXR7BRoV8Q"
        },
        {
            "lat": 19.635024,
            "lon": -99.114418,
            "place_id": "ChIJq2YCpyb10YURK5harxrX71U"
        },
        {
            "lat": 19.6426475,
            "lon": -99.1144574,
            "place_id": "ChIJhwGPRRL00YURnZZD430haWw"
        },
        {
            "lat": 19.642541,
            "lon": -99.114305,
            "place_id": "ChIJUwcrRBL00YURYqOIUWVvEpc"
        },
        {
            "lat": 19.6516775,
            "lon": -99.1209678,
            "place_id": "ChIJRR5ALGr00YUR6gxELCCXJis"
        },
        {
            "lat": 19.6534098,
            "lon": -99.11969409999999,
            "place_id": "ChIJ6Y90bGn00YURviGB4RCRb5s"
        },
        {
            "lat": 19.6534452,
            "lon": -99.11973359999999,
            "place_id": "ChIJW68obWn00YUR7eVHXtBW9ZU"
        }
    ]
}